[
  { "name": "SO0021",
    "state": "en attente",
    "transferts": [
      {"name": "WH/OUT03480",
       "lines": [
         { "name": "dev)302)121", "state": "colisé", "pack": "pqck2309"},
         { "name": "dev)302)121)c", "state": "colisé", "pack": "pqck2309"},
         { "name": "dev)432)032","state": "colisé", "pack": "pqck2310"},
         { "name": "dev)432)032","state": "colisé", "pack": "pqck2310"}
       ],
       "packs": [
         {"name": "pqck2309", "weight": 1, "state": "colisé", "location": "transit"},
         {"name": "pqck2310", "weight": 3, "state": "colisé", "location": "stock",  "place":"A23"}
       ]
      },
      {"name": "WH/OUT03481",
       "lines": [
        { "name": "dev)432)032","state": "colisé", "pack": "pqck2311"},
        { "name": "dev)432)033","state": "colisé", "pack": "pqck2311"},
        { "name": "dev)432)034","state": "receptionné"}
        ],
       "packs": [
         {"name": "pqck2311", "weight": 4, "state": "colisé", "location": "stock", "place":"A23"}
       ]
      }
    ]
  },
  { "name": "SO0044",
    "transferts": [
      {"name": "WH/OUT/03509",
       "lines": [
          {"name": "dev)293)129", "state": "init"},
          {"name": "dev)293)127", "state": "receptionné"},
          {"name": "dev)293)129", "state": "colisé", "pack": "pqck2308"},
          {"name": "dev)293)128", "state": "colisé", "pack": "pqck2308"}
       ],
       "packs": [
        {"name": "pqck2308", "weight": 2, "state": "colisé", "location": "transit"}
      ]
     }
    ]
  },
  {
    "name": "Facile",
    "transferts": [
       {
        "name": "WH/OU/3029",
        "lines":[
          { "name": "a", "state": "receptionné"},
          { "name": "a", "state": "receptionné"},
          { "name": "a", "state": "init"},
          { "name": "b", "state": "receptionné"}
        ],
        "packs": []
      }
    ]
  },
  {
    "name": "Facile2",
    "transferts": [
       {
        "name": "WH/OU/3044",
        "lines":[
          { "name": "e", "state": "init"},
          { "name": "e", "state": "init"},
          { "name": "f", "state": "init"},
          { "name": "g", "state": "init"}
        ],
        "packs": []
      }
    ]
  }
]
